City_ID,City,Country,Lat,Lng,Max Temp,Humidity,Cloudiness,Wind Speed,Current Description
0,Concordia,AR,-31.393,-58.0209,65.79,96,100,7.0,light rain
1,Cidreira,BR,-30.1811,-50.2056,61.7,94,2,15.5,clear sky
2,Punta Arenas,CL,-53.15,-70.9167,30.31,93,20,13.8,few clouds
3,Vila Franca Do Campo,PT,37.7167,-25.4333,70.21,89,50,3.09,scattered clouds
4,Siena,IT,43.2167,11.4,75.15,57,0,1.19,clear sky
5,Bredasdorp,ZA,-34.5322,20.0403,44.15,90,0,5.75,clear sky
6,Geraldton,AU,-28.7667,114.6,63.01,94,75,8.05,broken clouds
7,Isangel,VU,-19.55,169.2667,84.31,74,75,6.91,broken clouds
8,Lagoa,PT,39.05,-27.9833,71.01,83,9,4.43,clear sky
9,Clyde River,CA,70.4692,-68.5914,35.83,100,100,9.22,light rain
10,Port Alfred,ZA,-33.5906,26.891,56.17,97,98,1.01,overcast clouds
11,Methven,NZ,-43.6333,171.65,41.02,85,99,5.01,overcast clouds
12,Harper,LR,4.375,-7.7169,74.64,70,99,8.55,overcast clouds
13,Lannion,FR,48.75,-3.4167,61.14,81,51,9.82,broken clouds
14,Bethel,US,41.3712,-73.414,84.29,72,0,6.91,clear sky
15,Busselton,AU,-33.65,115.3333,58.05,81,100,14.18,light rain
16,Salani,IN,29.957,79.7127,69.76,97,100,2.8,light rain
17,Hobart,AU,-42.8794,147.3294,48.25,71,20,8.05,few clouds
18,Sabha,LY,27.0377,14.4283,79.3,27,0,8.68,clear sky
19,Tabory,RU,58.5198,64.5495,57.58,96,100,6.53,light rain
20,Butaritari,KI,3.0707,172.7902,81.09,80,100,9.4,moderate rain
21,Shyroke,UA,47.6917,33.2571,59.04,79,1,8.99,clear sky
22,Mount Isa,AU,-20.7333,139.5,65.97,24,0,13.8,clear sky
23,Jamestown,US,42.097,-79.2353,82.02,66,0,9.22,clear sky
24,Kuryk,KZ,43.2,51.65,79.77,45,5,17.22,clear sky
25,Kavieng,PG,-2.5744,150.7967,83.08,75,96,11.99,light rain
26,Torbay,CA,47.6666,-52.7314,64.58,87,100,18.41,overcast clouds
27,Deer Lake,CA,49.1667,-57.4316,60.66,82,100,9.22,overcast clouds
28,Touros,BR,-5.1989,-35.4608,73.72,90,100,9.62,light rain
29,Bambous Virieux,MU,-20.3428,57.7575,66.45,82,75,12.66,light rain
30,Pemberton,CA,50.3164,-122.8027,83.89,37,0,4.9,clear sky
31,Lompoc,US,34.6391,-120.4579,86.02,69,0,10.36,clear sky
32,Mahala,BA,44.0119,18.2553,61.03,64,0,2.51,clear sky
33,Rikitea,PF,-23.1203,-134.9692,73.56,76,0,5.61,light rain
34,Ushuaia,AR,-54.8,-68.3,29.86,93,100,17.27,snow
35,Lodwar,KE,3.1191,35.5973,75.31,57,98,13.33,overcast clouds
36,Esperance,AU,-33.8667,121.9,56.26,78,100,19.24,light rain
37,Dunedin,NZ,-45.8742,170.5036,45.81,65,100,15.01,overcast clouds
38,Georgetown,MY,5.4112,100.3354,83.89,81,20,2.3,few clouds
39,Fuxin,CN,42.0156,121.6589,73.33,82,100,2.51,overcast clouds
40,Leningradskiy,RU,69.3833,178.4167,33.26,98,100,20.27,light snow
41,Sechura,PE,-5.5569,-80.8222,63.81,77,12,15.86,few clouds
42,Sept-Iles,CA,50.2001,-66.3821,71.6,51,20,6.91,few clouds
43,Saskylakh,RU,71.9167,114.0833,51.06,56,53,17.09,broken clouds
44,Ribeira Grande,PT,38.5167,-28.7,72.82,84,6,2.57,clear sky
45,Pangai,TO,-19.8,-174.35,80.71,78,20,16.11,few clouds
46,Tuktoyaktuk,CA,69.4541,-133.0374,43.88,88,81,7.99,broken clouds
47,Ancud,CL,-41.8697,-73.8203,40.23,65,41,9.01,scattered clouds
48,Duma,CN,34.7653,108.135,71.8,66,0,5.23,clear sky
49,Nizwa,OM,22.9333,57.5333,81.16,80,94,2.35,overcast clouds
50,Izazi,TZ,-7.2,35.7333,61.59,68,0,2.91,clear sky
51,Upata,VE,8.0086,-62.3989,75.2,96,100,2.84,overcast clouds
52,Anchorage,US,61.2181,-149.9003,62.85,68,100,7.0,overcast clouds
53,Ponta Do Sol,PT,32.6667,-17.1,70.72,80,12,5.64,few clouds
54,Puerto Ayora,EC,-0.7393,-90.3518,68.56,98,45,11.01,scattered clouds
55,Lebu,CL,-37.6167,-73.65,52.05,96,100,5.17,overcast clouds
56,Haines Junction,CA,60.7522,-137.5108,53.98,57,100,7.18,overcast clouds
57,Mahebourg,MU,-20.4081,57.7,66.49,82,75,12.66,broken clouds
58,Asau,RO,46.4333,26.4,65.32,72,0,5.08,clear sky
59,Crestview,US,30.7621,-86.5705,85.24,92,68,1.01,broken clouds
60,New Norfolk,AU,-42.7826,147.0587,47.91,63,0,1.59,clear sky
61,Luderitz,NA,-26.6481,15.1594,55.74,62,0,14.61,clear sky
62,Raga,SS,8.4596,25.678,68.52,95,100,3.31,overcast clouds
63,Cape Town,ZA,-33.9258,18.4232,56.37,75,0,1.34,clear sky
64,Santa Rosa,PH,14.3122,121.1114,79.02,85,100,6.26,moderate rain
65,Arraial Do Cabo,BR,-22.9661,-42.0278,70.07,85,2,11.63,clear sky
66,Chokurdakh,RU,70.6333,147.9167,54.37,43,57,8.01,broken clouds
67,Pandan,PH,14.0453,124.1694,84.45,79,100,7.4,overcast clouds
68,Nanortalik,GL,60.1432,-45.2371,49.64,87,28,15.05,scattered clouds
69,Kodiak,US,57.79,-152.4072,58.51,67,0,10.36,clear sky
70,Lang Suan,TH,9.9456,99.0785,75.99,93,100,4.05,moderate rain
71,Hearst,CA,49.6835,-83.6665,66.45,99,100,4.36,overcast clouds
72,Gerash,IR,27.6652,54.1371,84.34,57,23,2.86,few clouds
73,Ponta Delgada,PT,37.7333,-25.6667,70.52,88,75,3.44,broken clouds
74,Aklavik,CA,68.2191,-135.0107,65.97,46,100,10.74,overcast clouds
75,Barrow,US,71.2906,-156.7887,53.62,62,0,12.66,clear sky
76,Airai,TL,-8.9266,125.4092,65.88,73,59,3.69,broken clouds
77,Pacific Grove,US,36.6177,-121.9166,75.24,84,75,8.05,broken clouds
78,Kruisfontein,ZA,-34.0033,24.7314,49.89,92,11,6.76,few clouds
79,Atuona,PF,-9.8,-139.0333,77.61,75,1,14.36,clear sky
80,Padampur,IN,29.6833,73.6167,89.13,64,100,7.85,overcast clouds
81,Tucurui,BR,-3.7661,-49.6725,80.4,61,61,0.94,broken clouds
82,Prince Rupert,CA,54.3161,-130.3201,60.89,75,75,9.22,broken clouds
83,Port Hope,US,43.9408,-82.7127,76.71,73,2,5.75,clear sky
84,Leh,IN,34.1667,77.5833,61.07,20,100,8.72,overcast clouds
85,Pimenteiras,BR,-6.2453,-41.4192,73.58,55,10,7.07,clear sky
86,Stanger,ZA,-29.3282,31.2895,55.29,87,3,5.14,clear sky
87,Carnarvon,AU,-24.8667,113.6333,68.07,94,100,9.22,overcast clouds
88,Jacareacanga,BR,-6.2222,-57.7528,77.36,56,65,1.59,broken clouds
89,Plettenberg Bay,ZA,-34.0527,23.3716,52.07,86,0,5.91,clear sky
90,Kysyl-Syr,RU,63.8986,122.7617,67.77,90,100,7.07,light rain
91,Hilo,US,19.7297,-155.09,84.27,85,41,5.01,scattered clouds
92,East London,ZA,-33.0153,27.9116,60.6,85,47,7.83,scattered clouds
93,Salalah,OM,17.0151,54.0924,75.29,100,100,6.91,mist
94,Albany,US,42.6001,-73.9662,86.65,63,34,3.74,scattered clouds
95,Barbacoas,CO,1.6715,-78.1398,74.41,96,97,2.04,light rain
96,Hithadhoo,MV,-0.6,73.0833,79.99,77,98,6.2,overcast clouds
97,Shache,CN,38.4167,77.2406,77.72,19,0,4.14,clear sky
98,Hasaki,JP,35.7333,140.8333,88.29,76,100,7.43,light rain
99,Polyarnyy,RU,69.1989,33.4478,55.63,84,84,1.1,broken clouds
100,Fort Nelson,CA,58.8053,-122.7002,77.41,30,100,3.09,overcast clouds
101,Patacamaya,BO,-17.2333,-67.9167,45.19,41,2,5.53,clear sky
102,Ulaangom,MN,49.9811,92.0667,65.43,36,6,1.79,clear sky
103,Nouadhibou,MR,20.931,-17.0347,69.78,94,20,5.75,few clouds
104,Meulaboh,ID,4.1363,96.1285,77.2,80,100,3.2,overcast clouds
105,Tessalit,ML,20.1986,1.0114,81.7,56,71,17.02,broken clouds
106,Castro,BR,-24.7911,-50.0119,56.32,93,6,4.29,clear sky
107,Bluff,NZ,-46.6,168.3333,44.8,68,100,7.54,overcast clouds
108,Sayyan,YE,15.1718,44.3244,60.85,67,100,4.32,overcast clouds
109,Vila Velha,BR,-20.3297,-40.2925,69.94,87,0,5.75,clear sky
110,Taraza,CO,7.5836,-75.4007,76.6,96,100,2.48,overcast clouds
111,Faya,SA,18.3851,42.4509,66.31,45,100,5.95,overcast clouds
112,Vardo,NO,70.3705,31.1107,53.58,100,100,8.05,overcast clouds
113,Bardiyah,LY,31.7561,25.0865,74.86,66,0,10.96,clear sky
114,Avarua,CK,-21.2078,-159.775,73.45,73,40,19.57,scattered clouds
115,Laguna,US,38.421,-121.4238,105.15,18,0,13.8,clear sky
116,Santa Maria,BR,-29.6842,-53.8069,63.86,92,78,4.61,broken clouds
117,Kemijarvi,FI,66.7131,27.4306,53.62,91,71,2.44,broken clouds
118,Talnakh,RU,69.4865,88.3972,56.21,65,100,7.92,overcast clouds
119,Holt,US,42.6406,-84.5153,80.47,62,75,13.8,broken clouds
120,Tuatapere,NZ,-46.1333,167.6833,45.7,81,100,3.76,overcast clouds
121,Kapaa,US,22.0752,-159.319,87.78,72,40,17.27,scattered clouds
122,Mayumba,GA,-3.432,10.6554,69.42,95,45,5.41,scattered clouds
123,Pouebo,NC,-20.4,164.5667,79.66,74,96,11.92,overcast clouds
124,Saint George,US,37.1041,-113.5841,107.44,15,0,13.8,clear sky
125,Ilheus,BR,-14.7889,-39.0494,69.62,94,20,6.91,few clouds
126,Hermanus,ZA,-34.4187,19.2345,49.44,78,0,6.15,clear sky
127,Mar Del Plata,AR,-38.0023,-57.5575,57.09,65,0,10.36,clear sky
128,Palana,RU,59.1167,159.9667,57.11,65,59,13.49,broken clouds
129,Hamilton,US,39.1834,-84.5333,88.81,77,40,11.5,scattered clouds
130,Narsaq,GL,60.9167,-46.05,48.42,95,31,3.53,scattered clouds
131,Kristiansund,NO,63.1115,7.732,55.45,94,100,9.22,drizzle
132,Yinchuan,CN,38.4681,106.2731,77.61,42,100,5.61,light rain
133,Zaranj,AF,30.9667,61.8833,89.08,17,0,19.08,clear sky
134,Orlik,RU,52.5178,99.825,56.14,64,69,1.1,broken clouds
135,Kavaratti,IN,10.5669,72.642,80.64,79,100,19.71,light rain
136,Biasca,CH,46.3597,8.9697,76.23,61,95,1.16,overcast clouds
137,Lazaro Cardenas,MX,17.9583,-102.2,83.21,84,12,3.36,few clouds
138,Zahir Pir,PK,28.8124,70.524,87.24,69,26,16.75,moderate rain
139,Aripuana,BR,-9.1667,-60.6333,74.39,48,0,2.08,clear sky
140,Bengkulu,ID,-3.8004,102.2655,77.77,87,18,2.86,few clouds
141,Saint-Philippe,RE,-21.3585,55.7679,67.59,78,47,14.88,scattered clouds
142,Binga,ZW,-17.6203,27.3414,64.15,65,90,1.77,overcast clouds
143,Del Rio,US,29.3627,-100.8968,104.11,24,0,16.11,clear sky
144,Khatanga,RU,71.9667,102.5,49.69,58,100,22.3,overcast clouds
145,Sibolga,ID,1.7427,98.7792,79.02,75,55,2.51,broken clouds
146,Kodinsk,RU,58.6881,99.1844,64.42,65,61,5.97,broken clouds
147,Husavik,IS,66.0449,-17.3389,45.5,88,74,1.25,broken clouds
148,Angoche,MZ,-16.2325,39.9086,66.69,82,0,3.13,clear sky
149,New Ulm,US,44.3125,-94.4605,84.92,51,0,6.91,clear sky
150,Ahuimanu,US,21.4447,-157.8378,85.71,68,75,16.11,shower rain
151,Chuy,UY,-33.6971,-53.4616,57.2,95,81,7.52,light rain
152,Balangiga,PH,11.1097,125.3875,85.01,71,95,3.31,light rain
153,Mataura,NZ,-46.1927,168.8643,44.47,78,100,4.0,overcast clouds
154,Yellowknife,CA,62.456,-114.3525,64.35,49,19,13.56,few clouds
155,Chernyshevskiy,RU,63.0128,112.4714,60.98,72,100,3.02,overcast clouds
156,Hay River,CA,60.8156,-115.7999,57.24,72,22,6.73,few clouds
157,Ballina,AU,-28.8667,153.5667,62.02,82,100,18.72,light rain
158,Yuci,CN,37.6803,112.7319,73.15,68,0,2.24,clear sky
159,Norman Wells,CA,65.282,-126.8329,75.96,37,32,7.72,scattered clouds
160,Zhongshu,CN,24.5167,103.7667,65.89,93,100,3.09,overcast clouds
161,Upernavik,GL,72.7868,-56.1549,48.11,70,100,7.78,overcast clouds
162,Truro,GB,50.2653,-5.0544,60.08,82,7,8.05,clear sky
163,Huarmey,PE,-10.0681,-78.1522,62.65,83,19,9.82,few clouds
164,Januaria,BR,-15.4833,-44.3667,68.2,50,1,4.32,clear sky
165,Puerto Escondido,MX,15.85,-97.0667,82.04,82,100,3.98,overcast clouds
166,Provideniya,RU,64.3833,-173.3,48.31,66,75,15.66,broken clouds
167,Hambantota,LK,6.1241,81.1185,78.71,84,97,15.32,overcast clouds
168,Cherskiy,RU,68.75,161.3,47.8,39,8,18.19,clear sky
169,Savannah Bight,HN,16.45,-85.85,82.71,80,5,18.1,clear sky
170,Lata,PT,40.1629,-8.3327,59.72,86,0,2.28,clear sky
171,Grand Gaube,MU,-20.0064,57.6608,66.6,76,91,5.99,light rain
172,Fairbanks,US,64.8378,-147.7164,69.76,48,75,12.66,broken clouds
173,Olga,RU,43.7444,135.2892,69.15,77,84,3.09,broken clouds
174,Itarema,BR,-2.9248,-39.9167,76.73,78,44,11.18,scattered clouds
175,Snezhnogorsk,RU,69.1933,33.2531,53.38,85,88,1.25,overcast clouds
176,Karratha,AU,-20.7377,116.8463,72.14,46,5,5.01,clear sky
177,Kichera,RU,55.9375,110.0997,61.92,77,78,1.14,broken clouds
178,Tucumcari,US,35.1717,-103.725,89.44,27,100,29.93,thunderstorm with light rain
179,Vaini,TO,-21.2,-175.2,74.34,78,64,14.92,broken clouds
180,Sao Filipe,CV,14.8961,-24.4956,76.05,88,71,4.27,broken clouds
181,San Lorenzo,PY,-25.3333,-57.5333,70.74,73,0,4.61,clear sky
182,Tiksi,RU,71.6872,128.8694,40.6,83,12,22.03,few clouds
183,Byron Bay,AU,-28.65,153.6167,61.95,74,100,17.76,moderate rain
184,Kirakira,SB,-10.4544,161.9205,85.21,68,31,7.63,scattered clouds
185,Mao,ES,39.8885,4.2658,75.76,94,0,8.05,clear sky
186,Saldanha,ZA,-33.0117,17.9442,51.51,69,0,8.05,clear sky
187,Sokoto,NG,13.0609,5.239,76.39,81,100,13.18,overcast clouds
188,Margherita,IN,27.2833,95.6833,76.26,98,100,0.87,overcast clouds
189,Calama,CL,-22.4667,-68.9333,55.89,9,94,9.22,overcast clouds
190,Grand-Lahou,CI,5.1367,-5.0242,74.25,72,75,7.34,broken clouds
191,Van,TR,38.4924,43.3831,60.15,44,0,3.44,clear sky
192,Teguise,ES,29.0605,-13.564,70.02,83,0,21.85,clear sky
193,Kropotkin,RU,45.4375,40.5756,60.35,66,0,7.47,clear sky
194,Praia,CV,14.9215,-23.5087,77.54,88,40,6.91,scattered clouds
195,Port Elizabeth,ZA,-33.918,25.5701,54.32,91,97,7.0,overcast clouds
196,Pevek,RU,69.7008,170.3133,31.75,87,100,15.9,overcast clouds
197,La Palma,US,33.8464,-118.0467,97.92,56,0,10.36,clear sky
198,Khuzdar,PK,27.7384,66.6434,77.68,63,79,5.75,broken clouds
199,Hellvik,NO,59.9156,5.781,58.77,93,100,3.0,overcast clouds
200,Kang,BW,-23.6752,22.7876,54.25,59,51,7.43,broken clouds
201,Eureka,US,40.8021,-124.1637,64.2,82,18,1.99,few clouds
202,Lagdo,CM,9.05,13.7333,70.05,95,100,3.27,overcast clouds
203,Yulara,AU,-25.2406,130.9889,55.98,35,10,12.86,clear sky
204,Gladstone,AU,-23.85,151.25,60.73,88,100,10.36,light rain
205,Sibu,MY,2.3,111.8167,81.86,80,70,3.0,broken clouds
206,Puerto Carreno,CO,6.189,-67.4859,74.48,91,100,3.71,overcast clouds
207,Buala,SB,-8.145,159.5921,85.42,66,95,7.87,overcast clouds
208,Brae,GB,60.3964,-1.353,51.94,87,87,17.2,overcast clouds
209,Fort-Shevchenko,KZ,44.5086,50.263,76.57,68,13,15.73,few clouds
210,Palafrugell,ES,41.9174,3.1631,79.43,51,0,3.6,clear sky
211,San Policarpo,PH,12.1791,125.5072,84.02,77,100,5.95,overcast clouds
212,Sakakah,SA,29.9697,40.2064,89.17,18,54,10.09,broken clouds
213,Mandalgovi,MN,45.7625,106.2708,66.9,55,100,10.92,overcast clouds
214,Los Llanos De Aridane,ES,28.6585,-17.9182,67.75,83,20,16.11,few clouds
215,Ixtapa,MX,20.7,-105.2,88.83,74,75,5.75,broken clouds
216,Margate,GB,51.3813,1.3862,67.69,81,69,5.01,broken clouds
217,Ampanihy,MG,-24.7,44.75,60.46,63,0,7.27,clear sky
218,Bubaque,GW,11.2833,-15.8333,76.84,90,100,13.53,light rain
219,Ust-Kuyga,RU,70.0167,135.6,57.67,49,0,10.58,clear sky
220,Kaitangata,NZ,-46.2817,169.8464,43.27,81,100,8.41,overcast clouds
221,Kidal,ML,18.4411,1.4078,80.73,63,91,11.9,moderate rain
222,Adrar,MR,20.5022,-10.0711,88.99,29,29,8.95,scattered clouds
223,Cairns,AU,-16.9167,145.7667,81.1,67,40,13.8,scattered clouds
224,Road Town,VG,18.4167,-64.6167,82.49,83,40,13.8,scattered clouds
225,Lavrentiya,RU,65.5833,-171.0,42.85,69,100,25.5,overcast clouds
226,Tasiilaq,GL,65.6145,-37.6368,37.56,77,100,3.78,overcast clouds
227,Palestine,PS,31.9216,35.2033,67.95,90,0,5.44,clear sky
228,Kamaishi,JP,39.2667,141.8833,76.59,76,100,4.68,overcast clouds
229,Saltillo,MX,25.4167,-101.0,81.82,41,75,11.5,broken clouds
230,Quiling,PH,18.0683,120.5439,87.66,79,75,2.3,broken clouds
231,Sumenep,ID,-7.0167,113.8667,81.43,67,38,10.96,scattered clouds
232,Rawson,AR,-43.3002,-65.1023,43.47,42,0,27.47,clear sky
233,Pavilosta,LV,56.8879,21.1859,51.71,72,47,7.14,scattered clouds
234,Bathsheba,BB,13.2167,-59.5167,81.21,95,40,16.11,scattered clouds
235,Bisert,RU,56.8617,59.0523,50.74,98,9,3.94,clear sky
236,Taltal,CL,-25.4,-70.4833,57.36,88,100,1.68,overcast clouds
237,Cayenne,GF,4.9333,-52.3333,81.09,1,20,0.0,few clouds
238,Nemuro,JP,43.3236,145.575,59.36,88,73,7.02,broken clouds
239,Deputatskiy,RU,69.3,139.9,44.78,74,96,15.48,overcast clouds
240,North Myrtle Beach,US,33.816,-78.68,82.11,80,0,11.5,clear sky
241,Galveston,US,29.3669,-94.9669,89.02,77,35,5.01,scattered clouds
242,Turukhansk,RU,65.8167,87.9833,55.76,80,33,8.19,scattered clouds
243,Hanyang,CN,32.1371,105.5126,72.52,83,65,2.73,broken clouds
244,Iqaluit,CA,63.7506,-68.5145,45.7,93,100,1.99,overcast clouds
245,Morehead,US,37.2711,-87.1764,89.35,79,0,0.0,clear sky
246,Flinders,AU,-34.5833,150.8552,59.18,89,100,5.99,overcast clouds
247,Kahului,US,20.8947,-156.47,83.97,54,40,25.32,scattered clouds
248,Jerantut,MY,3.936,102.3626,77.07,93,100,0.07,moderate rain
249,Qaanaaq,GL,77.484,-69.3632,39.99,84,100,4.5,overcast clouds
250,Lanzhou,CN,36.0564,103.7922,71.35,58,100,12.01,overcast clouds
251,Longyearbyen,SJ,78.2186,15.6401,51.64,82,40,11.5,scattered clouds
252,Namibe,AO,-15.1961,12.1522,62.29,79,0,8.39,clear sky
253,Santa Cruz Del Sur,CU,20.7147,-77.9956,81.28,75,78,11.77,broken clouds
254,Xichang,CN,27.8964,102.2634,69.26,83,73,3.27,broken clouds
255,Naze,JP,28.3667,129.4833,85.12,80,83,17.18,broken clouds
256,Longyan,CN,25.1072,117.0225,86.41,64,6,3.62,clear sky
257,Nikolskoye,RU,59.7035,30.7861,64.87,82,8,7.05,clear sky
258,Waitati,NZ,-45.75,170.5667,45.81,65,94,8.7,overcast clouds
259,Vitim,RU,59.4511,112.5578,61.9,88,100,6.64,overcast clouds
260,Bilma,NE,18.6853,12.9164,88.18,36,55,6.62,broken clouds
261,Kawalu,ID,-7.3817,108.2082,73.04,89,84,2.89,broken clouds
262,Ola,RU,59.5833,151.2833,79.14,80,51,6.62,broken clouds
263,Saint-Augustin,CA,51.226,-58.6502,55.22,88,100,15.99,overcast clouds
264,Pailon,BO,-17.65,-62.75,72.5,61,6,6.42,clear sky
265,Sobolevo,RU,54.4299,31.8996,58.48,63,100,15.43,overcast clouds
266,Codrington,AU,-38.2667,141.9667,53.69,56,5,6.4,clear sky
267,Ukiah,US,39.1502,-123.2078,100.44,20,0,9.22,clear sky
268,Nome,US,64.5011,-165.4064,47.16,87,100,8.05,moderate rain
269,Victoria,HK,22.2855,114.1577,90.32,76,14,8.01,few clouds
270,Hanmer Springs,NZ,-42.5167,172.8167,37.53,98,100,7.85,overcast clouds
271,Kaeo,NZ,-35.1,173.7833,61.32,78,1,17.67,clear sky
272,Waw,SS,7.7029,27.9953,68.97,90,100,2.68,overcast clouds
273,Tukrah,LY,32.5341,20.5791,75.61,68,0,8.68,clear sky
274,Tignere,CM,7.3667,12.65,63.57,97,100,1.34,light rain
275,Patan,NP,27.6667,85.3333,70.18,100,75,0.0,broken clouds
276,Itupiranga,BR,-5.1347,-49.3267,75.52,67,92,0.63,overcast clouds
277,Dikson,RU,73.5069,80.5464,38.86,91,100,30.18,light rain
278,Podosinovets,RU,60.2776,47.0659,51.26,97,12,2.82,few clouds
279,Mount Gambier,AU,-37.8333,140.7667,53.1,56,7,8.59,clear sky
280,Flin Flon,CA,54.7682,-101.865,66.61,52,97,12.48,overcast clouds
281,Urumqi,CN,43.801,87.6005,70.75,33,0,15.66,clear sky
282,Anadyr,RU,64.75,177.4833,50.5,57,75,13.42,broken clouds
283,San Patricio,US,28.017,-97.5169,88.18,65,4,18.48,clear sky
284,Pittsfield,US,42.4501,-73.2454,82.18,79,0,0.0,clear sky
285,Muisne,EC,0.6,-80.0333,73.72,86,100,7.25,overcast clouds
286,Rio Grande,BR,-32.035,-52.0986,58.95,92,0,12.12,clear sky
287,Pochutla,MX,15.7432,-96.4661,84.02,82,100,4.74,overcast clouds
288,Selma,US,36.5708,-119.6121,105.85,23,0,5.75,clear sky
289,Rocky Mount,US,35.9382,-77.7905,83.21,69,0,10.36,clear sky
290,Richards Bay,ZA,-28.783,32.0377,61.61,89,22,5.77,few clouds
291,Karema,TZ,-6.8205,30.4389,72.28,49,78,11.54,broken clouds
292,Pisco,PE,-13.7,-76.2167,60.85,82,100,6.91,overcast clouds
293,Port Moresby,PG,-9.4431,147.1797,81.46,74,12,2.91,few clouds
294,Behshahr,IR,36.6923,53.5526,76.78,86,68,5.1,broken clouds
295,Vao,NC,-22.6667,167.4833,74.08,89,100,10.13,overcast clouds
296,Camana,PE,-16.6228,-72.7111,60.17,87,93,5.77,overcast clouds
297,Benjamin Constant,BR,-4.3831,-70.0311,78.93,94,99,2.77,overcast clouds
298,Envira,BR,-7.3,-70.2167,72.19,66,10,1.01,clear sky
299,Allonnes,FR,47.9674,0.1581,66.24,82,100,2.3,overcast clouds
300,Sitka,US,57.0531,-135.33,55.29,82,100,8.05,light rain
301,Sonoita,MX,31.85,-112.8333,96.57,24,28,10.54,scattered clouds
302,Zhigansk,RU,66.7697,123.3711,51.57,68,100,10.58,overcast clouds
303,Pleshanovo,RU,52.8333,53.4833,59.05,70,12,4.88,few clouds
304,Bilibino,RU,68.0546,166.4372,54.72,34,35,8.37,scattered clouds
305,Champerico,GT,14.3,-91.9167,82.67,77,100,6.69,overcast clouds
306,Chengdu,CN,30.6667,104.0667,75.4,86,95,2.3,overcast clouds
307,Kingsville,US,27.5159,-97.8561,89.78,73,0,18.41,clear sky
308,Marsh Harbour,BS,26.5412,-77.0636,82.67,75,3,11.88,clear sky
309,Whitehorse,CA,60.7161,-135.0538,52.81,79,100,10.36,light intensity shower rain
310,Seydisehir,TR,37.4193,31.8453,58.5,75,0,4.79,clear sky
311,Tilichiki,RU,60.4667,166.1,64.4,38,1,6.91,clear sky
312,Parakou,BJ,9.3372,2.6303,69.49,87,98,4.72,overcast clouds
313,Faanui,PF,-16.4833,-151.75,78.08,69,8,10.45,clear sky
314,Taoudenni,ML,22.6783,-3.9836,93.43,31,99,11.39,overcast clouds
315,Souillac,MU,-20.5167,57.5167,66.58,82,75,12.66,broken clouds
316,Ngunguru,NZ,-35.6167,174.5,55.81,73,8,15.95,clear sky
317,Genhe,CN,50.7833,121.5167,80.55,42,0,4.54,clear sky
318,Alferrarede,PT,39.4833,-8.1667,62.85,82,0,5.12,clear sky
319,Sola,VU,-13.8833,167.55,81.25,78,14,18.52,few clouds
320,Chulym,RU,55.0997,80.9572,58.42,95,100,8.01,light rain
321,Diffa,NE,13.3154,12.6113,77.47,71,99,8.25,overcast clouds
322,Pimentel,PE,-6.8367,-79.9342,62.8,84,16,15.82,few clouds
323,Daru,PG,-9.0763,143.2092,78.87,87,11,8.86,few clouds
324,Caravelas,BR,-17.7125,-39.2481,70.88,79,0,6.24,clear sky
325,Thompson,CA,55.7435,-97.8558,66.36,72,75,10.36,broken clouds
326,Kendari,ID,-3.945,122.4989,79.83,86,18,2.19,few clouds
327,Barreirinha,BR,-2.7933,-57.07,74.57,92,53,2.39,broken clouds
328,Halifax,CA,44.6453,-63.5724,69.53,76,24,7.07,few clouds
329,Valenca,BR,-13.3703,-39.0731,67.24,96,64,3.27,broken clouds
330,San Luis,AR,-33.295,-66.3356,50.72,53,0,4.7,clear sky
331,Makakilo City,US,21.3469,-158.0858,84.52,58,75,16.11,shower rain
332,Kiama,AU,-34.6833,150.8667,60.01,93,100,3.0,overcast clouds
333,North Bend,US,43.4065,-124.2243,73.24,86,100,12.66,overcast clouds
334,Verkhoyansk,RU,67.5447,133.385,53.82,57,100,2.93,overcast clouds
335,Guerrero Negro,MX,27.9769,-114.0611,76.32,56,9,17.11,clear sky
336,Avera,US,33.194,-82.5271,81.55,75,100,6.82,overcast clouds
337,Pskov,RU,57.8136,28.3496,60.71,88,0,6.71,clear sky
338,Mandan,US,46.8267,-100.8896,81.61,46,0,17.27,clear sky
339,Marzuq,YE,14.4,46.4667,74.43,65,100,7.81,overcast clouds
340,Nizhniy Odes,RU,63.6445,54.856,60.28,70,31,1.21,scattered clouds
341,Vigrestad,NO,58.5667,5.7,57.58,92,100,21.12,overcast clouds
342,Jasper,US,37.2001,-94.3502,94.44,36,0,5.75,clear sky
343,Bandarbeyla,SO,9.4942,50.8122,74.28,82,7,24.02,clear sky
344,Inongo,CD,-1.95,18.2667,68.63,90,5,2.53,clear sky
345,Marrakesh,MA,31.6315,-8.0083,89.67,31,40,4.61,scattered clouds
346,Murgab,TM,37.4966,61.9714,75.07,35,0,6.91,clear sky
347,Stromness,GB,58.965,-3.296,53.56,91,32,10.0,scattered clouds
348,Ussel,FR,45.55,2.3167,54.9,94,0,1.25,clear sky
349,Itoman,JP,26.1247,127.6694,91.4,84,20,10.36,few clouds
350,Mafeteng,LS,-29.823,27.2374,45.0,54,95,3.91,overcast clouds
351,Sarankhola,BD,22.3082,89.7897,83.05,81,100,5.35,overcast clouds
352,Srednekolymsk,RU,67.45,153.6833,51.98,58,76,5.35,broken clouds
353,Sorland,NO,67.667,12.6934,53.46,91,100,14.83,overcast clouds
354,Biak,ID,-0.9131,122.8766,80.85,74,16,3.24,few clouds
355,Paranhos,BR,-23.8928,-55.4311,68.83,54,100,6.22,overcast clouds
356,Ermelo,ZA,-26.5333,29.9833,45.82,78,13,2.17,few clouds
357,Alindao,CF,5.0267,21.2088,69.96,96,99,1.39,overcast clouds
358,High Rock,BS,26.6208,-78.2833,82.42,71,0,9.51,clear sky
359,Te Anau,NZ,-45.4167,167.7167,42.55,83,93,2.3,overcast clouds
360,Kolondieba,ML,11.0882,-6.8926,71.31,97,99,5.39,light rain
361,Port Blair,IN,11.6667,92.75,80.65,79,100,6.26,moderate rain
362,Hami,CN,42.8,93.45,69.35,44,29,2.84,scattered clouds
363,Yar-Sale,RU,66.8333,70.8333,53.38,61,93,13.67,overcast clouds
364,Jumla,NP,29.2747,82.1838,63.54,95,100,1.23,overcast clouds
365,Ilulissat,GL,69.2167,-51.1,47.52,73,100,7.76,overcast clouds
366,Novopavlovka,RU,51.2172,109.2091,64.22,61,40,2.57,scattered clouds
367,Magdagachi,RU,53.45,125.8,69.12,66,86,5.57,overcast clouds
368,Salinas,US,36.6777,-121.6555,83.21,68,75,16.11,broken clouds
369,Garden City,US,42.3256,-83.331,82.98,57,75,17.27,broken clouds
370,Flagstaff,US,35.1981,-111.6513,75.33,48,75,6.91,thunderstorm
371,San Cristobal,VE,7.7669,-72.225,75.38,99,32,3.87,scattered clouds
372,Nardaran,AZ,40.5561,50.0056,74.84,83,0,24.16,clear sky
373,Rockport,US,28.0206,-97.0544,87.85,80,0,18.41,clear sky
374,Alofi,NU,-19.0595,-169.9187,76.89,78,75,14.97,broken clouds
375,Hualmay,PE,-11.0964,-77.6139,61.74,83,55,9.62,broken clouds
376,Carlsbad,US,33.1581,-117.3506,88.79,76,0,9.22,clear sky
377,Moree,AU,-29.4667,149.85,63.12,46,100,20.47,overcast clouds
378,Sao Joao Da Barra,BR,-21.6403,-41.0511,67.59,94,1,7.2,clear sky
379,Vila Do Maio,CV,15.1333,-23.2167,77.79,91,88,5.93,overcast clouds
380,Lorengau,PG,-2.0226,147.2712,84.18,68,55,5.1,moderate rain
381,Erenhot,CN,43.6475,111.9767,82.74,24,4,7.18,clear sky
382,Camocim,BR,-2.9022,-40.8411,76.53,81,53,7.65,broken clouds
383,Belaya Gora,RU,68.5333,146.4167,56.53,51,19,6.2,few clouds
384,Royal Palm Beach,US,26.7084,-80.2306,85.01,80,40,8.05,scattered clouds
385,Bowen,AU,-20.0167,148.2333,65.86,87,100,10.94,overcast clouds
386,Amapa,BR,1.0,-52.0,71.76,99,11,1.25,few clouds
387,Sinnamary,GF,5.3833,-52.95,77.31,85,42,5.75,scattered clouds
388,Kudahuvadhoo,MV,2.6708,72.8944,80.82,74,100,15.19,moderate rain
389,Kenai,US,60.5544,-151.2583,56.03,91,100,8.05,light rain
390,Jardim,BR,-21.4803,-56.1381,69.94,38,16,2.26,few clouds
391,Nha Trang,VN,12.25,109.1833,84.2,86,100,0.96,overcast clouds
392,Kennesaw,US,34.0234,-84.6155,86.7,78,0,5.75,clear sky
393,Alyangula,AU,-13.8483,136.4192,76.15,50,8,15.21,clear sky
394,Mezen,RU,65.8522,44.24,56.64,84,0,5.46,clear sky
395,Resistencia,AR,-27.4606,-58.9839,74.08,80,0,5.75,clear sky
396,Tabou,CI,4.423,-7.3528,74.82,69,100,7.99,overcast clouds
397,Paamiut,GL,61.994,-49.6678,49.08,84,97,12.91,overcast clouds
398,Opuwo,NA,-18.0607,13.84,55.96,36,0,6.49,clear sky
399,Pierre,US,44.3683,-100.351,92.32,35,0,17.27,clear sky
400,Saint-Francois,FR,46.4154,3.9054,60.24,88,20,2.3,few clouds
401,Labytnangi,RU,66.6572,66.4183,58.53,66,97,8.79,overcast clouds
402,Kasempa,ZM,-13.4584,25.8338,63.07,59,94,7.02,overcast clouds
403,Santa Cruz Cabralia,BR,-16.2781,-39.0247,71.83,78,75,3.44,broken clouds
404,Bridgetown,BB,13.1,-59.6167,81.09,89,40,16.11,scattered clouds
405,Voh,NC,-20.9667,164.7,82.02,69,88,5.5,overcast clouds
406,Calvia,ES,39.5657,2.5062,79.09,64,0,4.45,clear sky
407,Baykit,RU,61.67,96.37,62.22,70,28,3.69,scattered clouds
408,Talcahuano,CL,-36.7167,-73.1167,51.48,100,100,6.91,drizzle
409,Arlit,NE,18.7369,7.3853,90.23,31,54,7.72,broken clouds
410,Almunecar,ES,36.7339,-3.6907,84.69,82,0,1.83,clear sky
411,Kenora,CA,49.8167,-94.4337,72.28,62,0,12.46,clear sky
412,Lohardaga,IN,23.4333,84.6833,76.73,85,100,3.87,overcast clouds
413,Balkanabat,TM,39.5108,54.3671,83.08,54,0,1.83,clear sky
414,Sur,OM,22.5667,59.5289,83.23,77,100,13.38,overcast clouds
415,Inirida,CO,3.8653,-67.9239,72.64,96,82,2.06,broken clouds
416,Camacha,PT,33.0833,-16.3333,67.42,78,75,10.36,broken clouds
417,Adamas,GR,36.7333,24.4333,74.26,69,0,22.91,clear sky
418,Tira Sujanpur,IN,31.8333,76.5,76.5,88,99,0.94,light rain
419,Glushkovo,RU,51.3392,34.6328,51.1,92,6,10.89,clear sky
420,Hobyo,SO,5.3505,48.5268,74.82,80,69,23.4,broken clouds
421,Ouadda,CF,8.0777,22.4007,66.2,97,86,1.52,overcast clouds
422,Broome,US,42.2506,-75.833,84.65,60,0,8.01,clear sky
423,Robe,AU,-37.1833,139.75,51.89,62,97,15.7,overcast clouds
424,Sabang,ID,5.8933,95.3214,82.69,71,71,19.06,broken clouds
425,Poso,ID,-1.3959,120.7524,83.84,67,15,1.92,few clouds
426,Ambon,ID,-3.6954,128.1814,77.14,94,40,4.61,scattered clouds
427,Gigmoto,PH,13.7796,124.39,84.09,79,100,5.68,light rain
428,Paraguacu Paulista,BR,-22.4128,-50.5758,67.91,63,3,9.48,clear sky
429,Yantal,RU,56.8471,105.2542,64.63,70,100,3.58,overcast clouds
430,Porohy,UA,48.6876,24.2632,59.27,87,70,2.28,broken clouds
431,Zaraza,VE,9.3503,-65.3245,73.69,94,97,3.85,overcast clouds
432,Obertyn,UA,48.7003,25.1701,59.7,86,54,4.79,broken clouds
433,Coahuayana,MX,18.7333,-103.6833,84.78,80,17,3.8,few clouds
434,Oktyabrskoye,RU,43.0645,44.7417,60.94,100,79,4.47,mist
435,Wanning,CN,18.8003,110.3967,82.9,86,2,12.82,clear sky
436,Mehamn,NO,71.0357,27.8492,57.15,88,75,6.91,broken clouds
437,Nobres,BR,-14.7203,-56.3275,74.61,38,6,1.12,clear sky
438,Ladispoli,IT,41.9537,12.0735,80.46,65,0,3.49,clear sky
439,Uyuni,BO,-20.4597,-66.825,46.89,34,29,5.06,scattered clouds
440,Guadalajara,MX,20.6667,-103.3333,80.37,47,20,4.61,few clouds
441,Wanaka,NZ,-44.7,169.15,43.11,75,99,3.0,overcast clouds
442,Miles City,US,46.4083,-105.8406,88.77,27,0,14.97,clear sky
443,The Valley,AI,18.217,-63.0578,82.81,81,4,22.26,clear sky
444,Sao Gabriel Da Cachoeira,BR,-0.1303,-67.0892,71.67,98,98,0.18,overcast clouds
445,Pakxan,LA,18.3778,103.6601,78.85,89,100,3.2,moderate rain
446,Sao Jose Da Coroa Grande,BR,-8.8978,-35.1478,74.93,88,100,11.68,overcast clouds
447,Canar,EC,-2.55,-78.9333,46.44,87,64,9.4,broken clouds
448,High Level,CA,58.5169,-117.136,78.73,25,71,8.95,broken clouds
449,Ostrovnoy,RU,68.0531,39.5131,47.68,96,31,3.76,scattered clouds
450,Montepuez,MZ,-13.1256,38.9997,56.88,98,14,3.91,few clouds
451,Giddarbaha,IN,30.2,74.6667,77.29,95,100,9.37,overcast clouds
452,Shorapani,GE,42.0898,43.0866,65.82,100,100,2.08,overcast clouds
453,Fortuna,US,40.5982,-124.1573,63.93,77,8,4.0,clear sky
454,Gizo,SB,-8.103,156.8419,83.07,71,32,3.58,scattered clouds
455,Nyanza,RW,-2.3519,29.7509,58.05,61,87,3.06,overcast clouds
456,Agua Dulce,MX,18.1333,-94.1333,80.04,79,100,7.11,overcast clouds
457,Luebo,CD,-5.35,21.4167,73.02,55,16,0.87,few clouds
458,Ust-Nera,RU,64.5667,143.2,66.24,62,100,8.41,overcast clouds
459,Maxixe,MZ,-23.8597,35.3472,65.93,88,0,4.74,clear sky
460,Rocha,UY,-34.4833,-54.3333,58.57,92,94,9.48,overcast clouds
461,Jiwani,PK,25.05,61.7417,81.88,85,100,11.52,overcast clouds
462,Jieshi,CN,22.8134,115.8257,84.9,77,10,4.05,clear sky
463,Talaya,RU,61.3833,152.75,63.39,58,96,9.89,overcast clouds
464,Phan Thiet,VN,10.9333,108.1,79.75,81,100,0.43,overcast clouds
465,Makinsk,KZ,52.6292,70.4169,62.6,88,8,11.23,clear sky
466,Giyani,ZA,-23.3025,30.7187,59.63,79,76,2.51,broken clouds
467,Balkhash,KZ,46.844,74.9804,79.41,50,0,11.18,clear sky
468,Vestmanna,FO,62.1564,-7.1664,47.32,87,100,10.36,overcast clouds
469,Krasnokholm,RU,51.5979,54.1567,62.29,58,42,2.35,scattered clouds
470,Port Hardy,CA,50.6996,-127.4199,60.39,74,100,13.02,overcast clouds
471,Clovis,US,36.8252,-119.7029,107.17,17,20,11.5,smoke
472,Peniche,PT,39.3558,-9.3811,67.28,91,12,14.41,few clouds
473,Petropavlovka,RU,50.6114,105.3196,64.36,55,81,1.23,light rain
474,Cascais,PT,38.6979,-9.4215,68.94,67,0,20.0,clear sky
475,Cabo San Lucas,MX,22.8909,-109.9124,94.6,51,0,26.46,clear sky
476,Bhainsdehi,IN,21.6467,77.6325,70.95,96,100,8.86,light rain
477,Muros,ES,42.7762,-9.0603,66.09,81,5,10.11,clear sky
478,Gumdag,TM,39.2061,54.5906,78.55,77,0,8.9,clear sky
479,Kilindoni,TZ,-7.9139,39.6668,75.27,72,25,14.2,scattered clouds
480,Omsukchan,RU,62.5333,155.8,51.24,44,100,9.19,overcast clouds
481,Black River,JM,18.0264,-77.8487,80.44,73,19,2.84,few clouds
482,Ada,US,43.4166,-116.1262,99.28,10,0,15.01,clear sky
483,Mosquera,CO,4.7059,-74.2302,57.29,77,40,4.61,scattered clouds
484,Washington,US,47.5001,-120.5015,95.4,18,0,9.89,clear sky
485,Bairiki,KI,1.3292,172.9752,82.4,89,75,6.91,broken clouds
486,Pamplona,ES,42.8169,-1.6432,64.31,82,0,4.61,clear sky
487,Seoul,KR,37.5683,126.9778,72.84,95,100,6.67,light rain
488,Mazamari,PE,-11.3258,-74.5308,74.41,73,91,1.05,overcast clouds
489,College,US,64.8569,-147.8028,69.75,49,75,12.66,broken clouds
490,Barcelos,PT,41.5388,-8.6151,69.85,75,0,2.39,clear sky
491,Panzhihua,CN,26.5851,101.7128,68.76,96,100,0.58,overcast clouds
492,Teya,RU,60.3778,92.6267,61.23,71,44,4.27,scattered clouds
493,Asyut,EG,27.181,31.1837,82.42,34,1,13.38,clear sky
494,Bintulu,MY,3.1667,113.0333,81.01,94,20,2.3,few clouds
495,Komsomolskiy,UZ,40.4272,71.7189,77.72,36,0,6.91,clear sky
496,Coihaique,CL,-45.5752,-72.0662,35.55,64,100,5.75,light rain
497,Nchelenge,ZM,-9.3451,28.734,67.95,52,70,4.27,broken clouds
498,Sangar,RU,63.9242,127.4739,64.08,92,100,5.55,light rain
499,Kununurra,AU,-15.7667,128.7333,80.58,28,6,5.75,clear sky
500,Campo Verde,BR,-20.4167,-54.0667,68.47,35,2,4.79,clear sky
501,Auki,SB,-8.7676,160.7034,85.91,62,100,2.86,overcast clouds
502,Abay,KZ,49.6311,72.8539,73.78,52,100,3.0,overcast clouds
503,Grindavik,IS,63.8424,-22.4338,48.67,93,75,11.5,broken clouds
504,Humaita,BR,-7.5061,-63.0208,77.0,49,5,2.57,clear sky
505,Hagenow,DE,53.4333,11.1833,69.39,76,100,6.64,overcast clouds
506,Luanda,AO,-8.8368,13.2343,66.2,88,20,4.61,few clouds
507,Cooma,AU,-36.2333,149.1333,42.57,100,100,6.91,overcast clouds
508,Hurghada,EG,27.2574,33.8129,85.14,41,0,24.85,clear sky
509,Jian,CN,27.1172,114.9793,84.07,76,100,9.26,overcast clouds
510,Olafsvik,IS,64.8945,-23.7142,50.2,72,80,8.28,broken clouds
511,Shingu,JP,33.7333,135.9833,87.55,51,28,3.65,scattered clouds
512,Santa Cruz Del Norte,CU,23.1539,-81.9236,82.11,78,99,12.46,overcast clouds
513,Raudeberg,NO,61.9875,5.1352,52.95,92,100,7.11,overcast clouds
514,Bereda,ES,43.2686,-7.5406,63.41,99,96,5.82,overcast clouds
515,Andenes,NO,69.3143,16.1194,56.93,88,75,4.61,broken clouds
516,Jijiga,ET,9.35,42.8,58.91,90,100,13.33,light rain
517,Kasangulu,CD,-4.5911,15.1708,66.99,88,36,3.87,scattered clouds
518,Alta Floresta,BR,-9.8756,-56.0861,73.4,44,0,1.3,clear sky
519,Kutum,SD,14.2,24.6667,73.02,67,47,9.19,scattered clouds
520,Takoradi,GH,4.8845,-1.7554,72.91,76,8,8.7,clear sky
521,Pasighat,IN,28.0667,95.3333,77.5,97,100,1.81,overcast clouds
522,Teguldet,RU,57.3064,88.1667,57.87,94,92,4.14,light rain
523,Beamsville,CA,43.1668,-79.4829,85.62,70,98,11.5,overcast clouds
524,La Baule-Escoublac,FR,47.2922,-2.364,64.06,88,100,4.61,overcast clouds
525,Tual,ID,-5.6667,132.75,79.02,76,78,21.59,broken clouds
526,Altagracia De Orituco,VE,9.8601,-66.3814,71.19,95,47,2.08,scattered clouds
527,Augustow,PL,53.8432,22.9798,55.99,91,7,2.71,clear sky
528,Padang,ID,-0.9492,100.3543,77.05,76,20,1.72,few clouds
529,Primorsk,UA,46.7348,36.3443,67.87,69,91,14.83,overcast clouds
530,Sakaiminato,JP,35.55,133.2333,80.58,74,75,2.3,light rain
531,Keti Bandar,PK,24.1447,67.4497,82.56,85,100,18.66,overcast clouds
532,Kansk,RU,56.2017,95.7175,62.6,69,100,7.76,overcast clouds
533,Davila,PH,18.4726,120.5763,87.78,72,21,1.63,few clouds
534,Tecoanapa,MX,16.5167,-98.75,82.8,79,99,5.75,overcast clouds
535,Belaya Kholunitsa,RU,58.84,50.8528,50.83,96,15,1.01,few clouds
536,Stornoway,GB,58.2093,-6.3865,53.92,91,100,2.3,overcast clouds
537,Nesna,NO,66.1967,13.0213,57.72,99,100,3.83,overcast clouds
538,Mackay,AU,-21.15,149.2,66.69,93,100,14.97,overcast clouds
539,Gawler,AU,-34.6,138.7333,60.98,65,11,13.62,few clouds
540,Aswan,EG,24.0934,32.907,88.16,22,53,11.68,broken clouds
541,Tomobe,JP,36.35,140.3,85.8,60,100,3.91,overcast clouds
542,Port-Gentil,GA,-0.7193,8.7815,74.03,85,100,13.06,overcast clouds
543,Balabac,PH,7.9868,117.0645,84.24,70,77,5.64,broken clouds
544,Chicama,PE,-7.8447,-79.1469,59.54,82,29,5.82,scattered clouds
545,Snegiri,RU,55.8887,37.0242,56.95,99,100,5.21,overcast clouds
546,Poum,NC,-20.2333,164.0167,78.08,80,68,17.31,broken clouds
547,Bonthe,SL,7.5264,-12.505,74.44,90,100,11.07,light rain
548,Sisimiut,GL,66.9395,-53.6735,50.32,88,100,9.13,light rain
549,Labuhan,ID,-6.8844,112.2051,78.96,72,7,13.04,clear sky
550,Parry Sound,CA,45.3501,-80.033,73.45,88,65,14.61,light rain
551,Okhotsk,RU,59.3833,143.3,62.02,84,100,5.1,overcast clouds
552,Taksimo,RU,56.3444,114.8794,62.4,92,100,4.34,light rain
553,Kieta,PG,-6.2167,155.6333,84.4,68,44,4.32,scattered clouds
554,Caxito,AO,-8.5785,13.6643,64.69,96,24,0.81,few clouds
555,Santa Catalina,PH,9.3337,122.8637,85.98,75,68,1.5,broken clouds
556,Monte Carmelo,BR,-18.7247,-47.4986,62.13,52,0,4.47,clear sky
557,Foam Lake,CA,51.65,-103.5343,71.62,64,19,11.9,few clouds
558,Vaitape,PF,-16.5167,-151.75,78.04,69,8,10.56,clear sky
559,Miri,MY,4.4148,114.0089,82.54,89,20,4.61,few clouds
560,Jonava,LT,55.0833,24.2833,55.45,93,0,1.14,clear sky
561,Kalmunai,LK,7.4167,81.8167,79.81,84,100,3.27,overcast clouds
562,Guadalupe Y Calvo,MX,26.1,-106.9667,57.13,92,100,1.95,overcast clouds
563,Beringovskiy,RU,63.05,179.3167,44.1,74,100,14.92,overcast clouds
564,Vostok,RU,46.4856,135.8833,68.11,90,84,2.37,broken clouds
565,Kwekwe,ZW,-18.9281,29.8149,59.74,73,90,5.88,overcast clouds
566,Nangong,CN,37.3581,115.3744,80.29,65,0,6.44,clear sky
567,Ketchikan,US,55.3422,-131.6461,57.67,77,100,8.05,overcast clouds
568,Cassilandia,BR,-19.1133,-51.7342,67.64,38,48,2.48,scattered clouds
569,Brighton,GB,50.8284,-0.1395,65.8,90,20,3.0,few clouds
570,Mbini,GQ,1.574,9.6134,75.22,86,100,7.72,light rain
571,Jevargi,IN,17.0167,76.7667,75.54,80,100,11.65,overcast clouds
572,Hofn,IS,64.2539,-15.2082,52.11,71,14,4.14,few clouds
573,Thinadhoo,MV,0.5333,72.9333,80.11,75,100,4.99,overcast clouds
574,Natal,BR,-5.795,-35.2094,75.42,94,75,4.61,broken clouds
575,Port Lincoln,AU,-34.7333,135.8667,55.29,67,0,13.22,clear sky
576,Samana,DO,19.2056,-69.3369,79.25,87,14,10.33,few clouds
577,Cananeia,BR,-25.0147,-47.9267,62.42,94,15,1.95,few clouds
578,Cedar City,US,37.6775,-113.0619,88.77,20,0,13.8,clear sky
579,Port Augusta,AU,-32.5,137.7667,55.31,49,11,4.85,few clouds
580,Tiarei,PF,-17.5333,-149.3333,82.0,73,8,11.45,clear sky
581,Farafangana,MG,-22.8167,47.8333,67.08,85,91,8.63,light rain
582,Samarai,PG,-10.6167,150.6667,82.67,74,4,12.57,clear sky
583,Igarka,RU,67.4667,86.5833,51.62,96,100,7.49,overcast clouds
584,Nhulunbuy,AU,-12.2333,136.7667,81.21,54,0,17.27,clear sky
585,Puerto Narino,CO,-3.7703,-70.3831,73.24,96,75,2.57,broken clouds
586,Port Macquarie,AU,-31.4333,152.9167,58.89,73,100,15.73,overcast clouds
587,Katsuura,JP,35.1333,140.3,80.64,77,100,9.46,overcast clouds
588,San Giuseppe Jato,IT,37.9734,13.1881,76.71,32,0,2.33,clear sky
589,Mirabad,AF,30.4362,61.8383,88.83,17,2,16.78,clear sky
590,Havoysund,NO,70.9963,24.6622,57.43,80,74,11.01,broken clouds
591,Hengshui,CN,37.7322,115.7011,80.24,62,0,5.32,clear sky
592,Srandakan,ID,-7.9386,110.2506,78.37,76,64,9.64,broken clouds
593,Clarence Town,AU,-32.5833,151.7833,64.98,70,100,7.99,overcast clouds
594,Malindi,KE,-3.2175,40.1191,71.58,87,72,12.82,light rain
595,Klaksvik,FO,62.2266,-6.589,49.12,92,94,18.72,overcast clouds
596,Broken Hill,AU,-31.95,141.4333,48.47,91,95,14.65,overcast clouds
597,Yarim,YE,14.298,44.3779,56.82,73,100,2.17,overcast clouds
598,Zhuhai,CN,22.2769,113.5678,91.85,79,20,8.05,few clouds
599,Bombay,IN,19.0144,72.8479,80.58,89,75,9.22,haze
600,Juneau,US,58.3019,-134.4197,53.22,95,100,11.5,light rain
601,Portland,US,45.5234,-122.6762,94.01,35,20,10.36,few clouds
602,Mayo,US,38.8876,-76.5119,87.19,82,0,9.22,clear sky
603,Tieli,CN,46.95,128.05,78.03,68,0,3.98,clear sky
604,Smithers,CA,54.7804,-127.1743,75.38,31,56,5.86,broken clouds
605,Churapcha,RU,62.0025,132.4325,81.46,47,100,9.37,overcast clouds
606,Tromso,NO,69.6496,18.957,57.22,82,75,0.0,broken clouds
607,Pemangkat,ID,1.1667,108.9667,80.69,84,86,4.94,overcast clouds
608,Olovyannaya,RU,50.95,115.5667,71.6,64,63,9.82,broken clouds
609,Westport,US,41.1415,-73.3579,84.61,68,0,5.75,clear sky
610,Pizhanka,RU,57.4604,48.542,52.09,89,47,3.69,scattered clouds
611,Jalu,LY,29.0331,21.5482,73.87,44,0,11.45,clear sky
612,Katherine,AU,-14.4667,132.2667,75.52,38,59,10.36,broken clouds
613,Esmeraldas,BR,-19.7625,-44.3139,66.51,70,0,3.87,clear sky
614,Luau,AO,-10.7073,22.2247,62.42,40,20,7.45,few clouds
615,Orchard Homes,US,46.8633,-114.0484,91.54,16,0,14.97,clear sky
616,Shakawe,BW,-18.3667,21.85,56.17,41,69,5.44,broken clouds
617,Saint-Jerome,CA,45.7804,-74.0036,83.43,89,75,3.44,broken clouds
618,Lingao,CN,19.9103,109.6859,84.18,77,3,16.58,clear sky
619,Oksovskiy,RU,62.6062,39.8984,55.65,98,1,4.07,clear sky
620,Oga,IT,46.4631,10.347,59.81,84,52,2.06,broken clouds
621,Dekar,BW,-21.5333,21.9333,50.47,48,0,4.45,clear sky
622,Bukama,CD,-9.2,25.85,72.52,48,10,3.29,clear sky
623,Kaduy,RU,59.2,37.15,56.01,97,46,9.19,scattered clouds
624,San Ignacio,BZ,17.1561,-89.0714,80.74,83,75,0.0,broken clouds
625,Inta,RU,66.0317,60.1659,62.46,59,51,5.95,broken clouds
626,Salinopolis,BR,-0.6136,-47.3561,79.39,81,80,9.26,broken clouds
627,Gisborne,NZ,-38.6533,178.0042,56.97,61,9,15.08,clear sky
628,Taganak,PH,6.0833,118.3,84.34,80,97,4.18,overcast clouds
629,Yerbogachen,RU,61.2767,108.0108,64.51,72,5,4.97,clear sky
630,Tura,IN,25.5198,90.2201,75.29,96,100,4.12,overcast clouds
631,Bam,IR,29.106,58.357,87.76,11,1,4.83,clear sky
632,Vazante,BR,-17.9869,-46.9078,65.57,49,0,3.2,clear sky
633,Sohag,EG,26.557,31.6948,83.28,26,0,10.25,clear sky
634,Nanakuli,US,21.3906,-158.1547,85.95,51,75,8.05,broken clouds
635,Alice Springs,AU,-23.7,133.8833,51.35,40,18,14.97,few clouds
636,Clemencia,CO,10.5665,-75.325,79.97,88,12,10.16,few clouds
637,Usinsk,RU,65.9939,57.5281,63.91,62,98,7.31,overcast clouds
638,Verdun,FR,49.25,5.3333,64.17,94,6,6.33,clear sky
639,Okakarara,NA,-20.5833,17.4333,47.41,48,0,5.53,clear sky
640,Zhireken,RU,52.8249,117.3076,71.62,68,20,4.5,few clouds
641,Mach,PK,29.8637,67.3298,84.97,66,4,1.97,clear sky
642,Aden,YE,12.7794,45.0367,82.04,74,100,2.51,overcast clouds
643,Gunjur,GM,13.2019,-16.7339,75.27,94,75,3.44,broken clouds
644,Mporokoso,ZM,-9.3727,30.125,60.49,61,62,7.96,broken clouds
645,Saint-Georges,GD,12.0564,-61.7485,78.48,89,20,5.75,few clouds
646,Dutlwe,BW,-23.9833,23.9,54.64,65,89,6.51,overcast clouds
647,Banfora,BF,10.6333,-4.7667,72.21,94,100,4.81,overcast clouds
648,Constitucion,CL,-35.3333,-72.4167,50.86,91,1,6.38,clear sky
649,Raymond,US,43.9015,-70.4703,78.35,81,4,3.06,clear sky
650,Mugur-Aksy,RU,50.35,90.5,50.22,65,21,4.09,few clouds
651,Loa Janan,ID,-0.583,117.095,81.54,82,48,0.47,scattered clouds
652,Tabuk,PH,17.4189,121.4443,84.02,74,56,3.8,broken clouds
653,Saint-Pierre,RE,-21.3393,55.4781,67.68,66,20,17.27,few clouds
654,Luganville,VU,-15.5333,167.1667,83.61,73,15,11.74,few clouds
655,Nortelandia,BR,-14.4547,-56.8028,72.57,42,40,2.84,scattered clouds
656,Waingapu,ID,-9.6567,120.2641,79.65,60,82,8.81,broken clouds
657,Sioux Lookout,CA,50.1001,-91.917,77.07,53,40,4.61,scattered clouds
658,Hudiksvall,SE,61.729,17.1036,64.08,69,100,3.02,overcast clouds
659,Poplar Bluff,US,36.757,-90.3929,92.34,72,0,8.05,clear sky
660,Bull Savanna,JM,17.8868,-77.5902,77.16,75,7,8.01,clear sky
661,San Borja,BO,-14.8167,-66.85,74.48,65,78,0.98,broken clouds
662,Xining,CN,36.6167,101.7667,52.45,96,100,4.16,overcast clouds
663,Howard Springs,AU,-12.497,131.047,80.87,59,55,8.34,broken clouds
664,Lae,PG,-6.7221,146.9847,83.89,68,98,4.07,overcast clouds
665,Falkenberg,SE,56.9055,12.4912,71.74,69,4,5.1,clear sky
666,Acarau,BR,-2.8856,-40.12,76.42,80,43,9.62,scattered clouds
667,Kraslava,LV,55.8951,27.168,51.55,90,4,7.09,clear sky
668,Sfantu Gheorghe,RO,45.8667,25.7833,66.27,69,0,1.34,clear sky
669,Liverpool,GB,53.4106,-2.9779,62.15,80,75,11.5,broken clouds
670,Kattivakkam,IN,13.2167,80.3167,81.07,86,100,9.35,overcast clouds
671,Kizukuri,JP,40.8061,140.3861,73.81,85,97,6.49,overcast clouds
672,Karatsu,JP,33.4425,129.9697,87.69,78,99,14.92,overcast clouds
673,Arkalgud,IN,12.765,76.0569,67.37,94,89,6.49,overcast clouds
674,Solnechnyy,RU,50.7214,136.6319,58.59,96,100,5.35,overcast clouds
675,Severo-Yeniseyskiy,RU,60.3725,93.0408,58.53,68,40,4.05,scattered clouds
676,Ringebu,NO,61.5167,10.1667,62.96,81,100,1.9,light rain
677,Moroto,UG,2.5345,34.6666,63.0,80,96,4.14,overcast clouds
678,Port-Cartier,CA,50.0334,-66.8654,71.28,62,0,6.78,clear sky
679,Suntar,RU,62.1444,117.6319,58.19,89,100,4.76,overcast clouds
680,Roebourne,AU,-20.7833,117.1333,72.48,40,5,4.83,clear sky
681,Nioro,GM,13.35,-15.75,74.82,92,100,4.61,light rain
